$INZDA,172547.58,14,09,2023,,*76
$INGGA,172547.00,4331.427951,N,05840.288221,W,2,08,1.2,0.81,M,-16.97,M,0.2,0001*67
$INVTG,95.02,T,,M,11.1,N,20.5,K,D*10
$INRMC,172547.00,A,4331.427951,N,05840.288221,W,11.1,95.02,140923,,,D*6A
$GPGST,172547.00,0.56,0.318,0.236,11,0.315,0.240,0.579*4F
$INHDT,96.54,T*2B
$INZDA,172548.58,14,09,2023,,*79
$INGGA,172548.00,4331.427788,N,05840.284093,W,2,08,1.2,1.04,M,-16.97,M,0.0,0001*6B
$INVTG,93.07,T,,M,10.8,N,20.1,K,D*1F
$INRMC,172548.00,A,4331.427788,N,05840.284093,W,10.8,93.07,140923,,,D*63
$GPGST,172548.00,0.56,0.318,0.236,11,0.315,0.240,0.579*40
$INHDT,96.64,T*28
$INZDA,172549.58,14,09,2023,,*78
$INGGA,172549.00,4331.427724,N,05840.280105,W,2,08,1.2,1.56,M,-16.97,M,0.4,0001*65
$INVTG,91.26,T,,M,10.5,N,19.4,K,D*1C
$INRMC,172549.00,A,4331.427724,N,05840.280105,W,10.5,91.26,140923,,,D*62
$GPGST,172549.00,0.56,0.318,0.236,11,0.315,0.240,0.579*41
$INHDT,96.73,T*2E
$INZDA,172550.58,14,09,2023,,*70
$INGGA,172550.00,4331.427696,N,05840.276187,W,2,08,1.2,1.98,M,-16.97,M,0.2,0001*62
$INVTG,90.59,T,,M,10.3,N,19.0,K,D*17
$INRMC,172550.00,A,4331.427696,N,05840.276187,W,10.3,90.59,140923,,,D*6E
$GPGST,172550.00,0.56,0.318,0.236,11,0.315,0.240,0.579*49
$INHDT,96.70,T*2D
$INZDA,172551.58,14,09,2023,,*71
$INGGA,172551.00,4331.427621,N,05840.272248,W,2,08,1.2,1.93,M,-16.97,M,0.0,0001*62
$INVTG,91.54,T,,M,10.3,N,19.1,K,D*1A
$INRMC,172551.00,A,4331.427621,N,05840.272248,W,10.3,91.54,140923,,,D*6B
$GPGST,172551.00,0.56,0.318,0.236,11,0.315,0.240,0.578*49
$INHDT,96.62,T*2E
$INZDA,172552.58,14,09,2023,,*72
$INGGA,172552.00,4331.427484,N,05840.268229,W,2,08,1.2,1.48,M,-16.97,M,1.0,0001*67
$INVTG,92.73,T,,M,10.5,N,19.5,K,D*1E
$INRMC,172552.00,A,4331.427484,N,05840.268229,W,10.5,92.73,140923,,,D*69
$GPGST,172552.00,0.56,0.318,0.236,11,0.315,0.240,0.578*4A
$INHDT,96.59,T*26
$INZDA,172553.58,14,09,2023,,*73
$INGGA,172553.00,4331.427277,N,05840.264183,W,2,08,1.2,0.96,M,-16.97,M,1.4,0001*65
$INVTG,93.92,T,,M,10.6,N,19.6,K,D*10
$INRMC,172553.00,A,4331.427277,N,05840.264183,W,10.6,93.92,140923,,,D*60
$GPGST,172553.00,0.56,0.318,0.236,11,0.315,0.240,0.578*4B
$INHDT,96.56,T*29
$INZDA,172554.58,14,09,2023,,*74
$INGGA,172554.00,4331.427020,N,05840.260227,W,2,08,1.2,0.69,M,-16.97,M,0.0,0001*6E
$INVTG,95.15,T,,M,10.4,N,19.3,K,D*1E
$INRMC,172554.00,A,4331.427020,N,05840.260227,W,10.4,95.15,140923,,,D*65
$GPGST,172554.00,0.56,0.318,0.236,11,0.315,0.240,0.578*4C
$INHDT,96.53,T*2C
$INZDA,172555.58,14,09,2023,,*75
$INGGA,172555.00,4331.426727,N,05840.256376,W,2,08,1.2,0.74,M,-16.97,M,0.4,0001*66
$INVTG,96.03,T,,M,10.1,N,18.7,K,D*1A
$INRMC,172555.00,A,4331.426727,N,05840.256376,W,10.1,96.03,140923,,,D*64
$GPGST,172555.00,0.56,0.318,0.236,11,0.315,0.240,0.578*4D
$INHDT,96.58,T*27
$INZDA,172556.58,14,09,2023,,*76
$INGGA,172556.00,4331.426399,N,05840.252590,W,2,08,1.2,0.94,M,-16.97,M,0.2,0001*66
$INVTG,96.66,T,,M,10.0,N,18.5,K,D*1A
$INRMC,172556.00,A,4331.426399,N,05840.252590,W,10.0,96.66,140923,,,D*6E
$GPGST,172556.00,0.56,0.318,0.236,11,0.315,0.240,0.578*4E
$INHDT,96.67,T*2B
$INZDA,172557.58,14,09,2023,,*77
$INGGA,172557.00,4331.426053,N,05840.248737,W,2,08,1.2,1.10,M,-16.97,M,0.0,0001*69
$INVTG,97.01,T,,M,10.2,N,18.8,K,D*15
$INRMC,172557.00,A,4331.426053,N,05840.248737,W,10.2,97.01,140923,,,D*6C
$GPGST,172557.00,0.56,0.318,0.236,11,0.315,0.240,0.578*4F
$INHDT,96.73,T*2E
$INZDA,172558.58,14,09,2023,,*78
$INGGA,172558.00,4331.425735,N,05840.244783,W,2,08,1.2,1.15,M,-16.97,M,0.4,0001*60
$INVTG,96.43,T,,M,10.4,N,19.3,K,D*1E
$INRMC,172558.00,A,4331.425735,N,05840.244783,W,10.4,96.43,140923,,,D*65
$GPGST,172558.00,0.56,0.318,0.236,11,0.315,0.240,0.578*40
$INHDT,96.82,T*20
$INZDA,172559.58,14,09,2023,,*79
$INGGA,172559.00,4331.425462,N,05840.240745,W,2,08,1.2,1.20,M,-16.97,M,0.2,0001*6E
$INVTG,95.29,T,,M,10.6,N,19.7,K,D*17
$INRMC,172559.00,A,4331.425462,N,05840.240745,W,10.6,95.29,140923,,,D*66
$GPGST,172559.00,0.56,0.318,0.236,11,0.315,0.240,0.578*41
$INHDT,96.94,T*27
$INZDA,172600.58,14,09,2023,,*76
$INGGA,172600.00,4331.425277,N,05840.236634,W,2,08,1.2,1.36,M,-16.97,M,1.2,0001*63
$INVTG,93.56,T,,M,10.8,N,20.0,K,D*1A
$INRMC,172600.00,A,4331.425277,N,05840.236634,W,10.8,93.56,140923,,,D*6D
$GPGST,172600.00,0.56,0.318,0.236,11,0.315,0.240,0.578*4E
$INHDT,97.05,T*2E
$INZDA,172601.58,14,09,2023,,*77
$INGGA,172601.00,4331.425170,N,05840.232514,W,2,08,1.2,1.56,M,-16.97,M,1.0,0001*67
$INVTG,91.98,T,,M,10.8,N,20.0,K,D*1A
$INRMC,172601.00,A,4331.425170,N,05840.232514,W,10.8,91.98,140923,,,D*6D
$GPGST,172601.00,0.56,0.318,0.236,11,0.315,0.240,0.578*4F
$INHDT,97.15,T*2F
$INZDA,172602.58,14,09,2023,,*74
$INGGA,172602.00,4331.425095,N,05840.228411,W,2,08,1.2,1.71,M,-16.97,M,0.2,0001*67
$INVTG,91.45,T,,M,10.7,N,19.9,K,D*16
$INRMC,172602.00,A,4331.425095,N,05840.228411,W,10.7,91.45,140923,,,D*64
$GPGST,172602.00,0.56,0.318,0.236,11,0.315,0.240,0.578*4C
$INHDT,97.19,T*23
$INZDA,172603.58,14,09,2023,,*75
$INGGA,172603.00,4331.425011,N,05840.224373,W,2,08,1.2,1.78,M,-16.97,M,0.0,0001*6E
$INVTG,91.77,T,,M,10.6,N,19.6,K,D*19
$INRMC,172603.00,A,4331.425011,N,05840.224373,W,10.6,91.77,140923,,,D*66
$GPGST,172603.00,0.56,0.318,0.236,11,0.315,0.240,0.578*4D
$INHDT,97.11,T*2B
$INZDA,172604.58,14,09,2023,,*72
$INGGA,172604.00,4331.424879,N,05840.220367,W,2,08,1.2,1.69,M,-16.97,M,0.4,0001*6B
$INVTG,92.63,T,,M,10.5,N,19.5,K,D*1F
$INRMC,172604.00,A,4331.424879,N,05840.220367,W,10.5,92.63,140923,,,D*62
$GPGST,172604.00,0.56,0.318,0.236,11,0.315,0.240,0.578*4A
$INHDT,96.95,T*26
$INZDA,172605.58,14,09,2023,,*73
$INGGA,172605.00,4331.424712,N,05840.216354,W,2,08,1.2,1.45,M,-16.97,M,0.2,0001*65
$INVTG,93.29,T,,M,10.5,N,19.5,K,D*10
$INRMC,172605.00,A,4331.424712,N,05840.216354,W,10.5,93.29,140923,,,D*6B
$GPGST,172605.00,0.56,0.318,0.236,11,0.315,0.240,0.578*4B
$INHDT,96.89,T*2B
$INZDA,172606.58,14,09,2023,,*70
$INGGA,172606.00,4331.424513,N,05840.212350,W,2,08,1.2,1.18,M,-16.97,M,0.0,0001*6F
$INVTG,93.87,T,,M,10.5,N,19.5,K,D*14
$INRMC,172606.00,A,4331.424513,N,05840.212350,W,10.5,93.87,140923,,,D*6F
$GPGST,172606.00,0.56,0.318,0.236,11,0.315,0.240,0.578*48
$INHDT,96.97,T*24
$INZDA,172607.58,14,09,2023,,*71
$INGGA,172607.00,4331.424275,N,05840.208399,W,2,08,1.2,0.96,M,-16.97,M,0.4,0001*64
$INVTG,94.74,T,,M,10.4,N,19.2,K,D*19
$INRMC,172607.00,A,4331.424275,N,05840.208399,W,10.4,94.74,140923,,,D*6D
$GPGST,172607.00,0.56,0.318,0.236,11,0.315,0.240,0.578*49
$INHDT,97.09,T*22
$INZDA,172608.58,14,09,2023,,*7E
$INGGA,172608.00,4331.423980,N,05840.204490,W,2,08,1.2,0.83,M,-16.97,M,1.4,0001*6A
$INVTG,96.04,T,,M,10.3,N,19.1,K,D*18
$INRMC,172608.00,A,4331.423980,N,05840.204490,W,10.3,96.04,140923,,,D*64
$GPGST,172608.00,0.56,0.318,0.236,11,0.315,0.240,0.578*46
$INHDT,97.14,T*2E
$INZDA,172609.58,14,09,2023,,*7F
$INGGA,172609.00,4331.423621,N,05840.200552,W,2,08,1.2,0.73,M,-16.97,M,1.2,0001*6D
$INVTG,97.37,T,,M,10.4,N,19.2,K,D*1D
$INRMC,172609.00,A,4331.423621,N,05840.200552,W,10.4,97.37,140923,,,D*6C
$GPGST,172609.00,0.56,0.318,0.236,11,0.315,0.240,0.578*47
$INHDT,97.17,T*2D
$INZDA,172610.58,14,09,2023,,*77
$INGGA,172610.00,4331.423199,N,05840.196571,W,2,08,1.2,0.62,M,-16.97,M,0.4,0001*6B
$INVTG,98.03,T,,M,10.5,N,19.5,K,D*13
$INRMC,172610.00,A,4331.423199,N,05840.196571,W,10.5,98.03,140923,,,D*64
$GPGST,172610.00,0.56,0.318,0.236,11,0.315,0.240,0.578*4F
$INHDT,97.24,T*2D
$INZDA,172611.58,14,09,2023,,*76
$INGGA,172611.00,4331.422798,N,05840.192585,W,2,08,1.2,0.60,M,-16.97,M,0.2,0001*67
$INVTG,97.87,T,,M,10.5,N,19.5,K,D*10
$INRMC,172611.00,A,4331.422798,N,05840.192585,W,10.5,97.87,140923,,,D*6F
$GPGST,172611.00,0.56,0.318,0.236,11,0.315,0.240,0.578*4E
$INHDT,97.30,T*28
$INZDA,172612.58,14,09,2023,,*75
$INGGA,172612.00,4331.422454,N,05840.188658,W,2,08,1.2,0.86,M,-16.97,M,0.0,0001*65
$INVTG,96.87,T,,M,10.4,N,19.2,K,D*17
$INRMC,172612.00,A,4331.422454,N,05840.188658,W,10.4,96.87,140923,,,D*67
$GPGST,172612.00,0.56,0.318,0.236,11,0.316,0.240,0.578*4E
$INHDT,97.33,T*2B
$INZDA,172613.58,14,09,2023,,*74
$INGGA,172613.00,4331.422188,N,05840.184778,W,2,08,1.2,1.36,M,-16.97,M,0.4,0001*61
$INVTG,95.42,T,,M,10.2,N,18.9,K,D*11
$INRMC,172613.00,A,4331.422188,N,05840.184778,W,10.2,95.42,140923,,,D*61
$GPGST,172613.00,0.56,0.318,0.236,11,0.316,0.240,0.578*4F
$INHDT,97.25,T*2C
$INZDA,172614.58,14,09,2023,,*73
$INGGA,172614.00,4331.422013,N,05840.180866,W,2,08,1.2,1.89,M,-16.97,M,0.2,0001*63
$INVTG,93.60,T,,M,10.3,N,19.0,K,D*1E
$INRMC,172614.00,A,4331.422013,N,05840.180866,W,10.3,93.60,140923,,,D*66
$GPGST,172614.00,0.56,0.318,0.236,11,0.316,0.240,0.578*48
$INHDT,97.14,T*2E
$INZDA,172615.58,14,09,2023,,*72
$INGGA,172615.00,4331.421897,N,05840.176852,W,2,08,1.2,2.13,M,-16.97,M,0.0,0001*69
$INVTG,92.23,T,,M,10.5,N,19.5,K,D*1B
$INRMC,172615.00,A,4331.421897,N,05840.176852,W,10.5,92.23,140923,,,D*6E
$GPGST,172615.00,0.56,0.318,0.236,11,0.316,0.240,0.578*49
$INHDT,97.08,T*23
$INZDA,172616.58,14,09,2023,,*71
$INGGA,172616.00,4331.421826,N,05840.172738,W,2,08,1.2,1.96,M,-16.97,M,0.4,0001*6D
$INVTG,91.33,T,,M,10.8,N,20.0,K,D*1B
$INRMC,172616.00,A,4331.421826,N,05840.172738,W,10.8,91.33,140923,,,D*6F
$GPGST,172616.00,0.56,0.318,0.236,11,0.316,0.240,0.578*4A
$INHDT,97.14,T*2E
$INZDA,172617.58,14,09,2023,,*70
$INGGA,172617.00,4331.421755,N,05840.168622,W,2,08,1.2,1.61,M,-16.97,M,1.4,0001*6F
$INVTG,91.40,T,,M,10.8,N,20.0,K,D*1F
$INRMC,172617.00,A,4331.421755,N,05840.168622,W,10.8,91.40,140923,,,D*60
$GPGST,172617.00,0.56,0.318,0.236,11,0.316,0.240,0.578*4B
$INHDT,97.29,T*20
$INZDA,172618.58,14,09,2023,,*7F
$INGGA,172618.00,4331.421660,N,05840.164581,W,2,08,1.2,1.40,M,-16.97,M,1.2,0001*64
$INVTG,91.76,T,,M,10.6,N,19.6,K,D*18
$INRMC,172618.00,A,4331.421660,N,05840.164581,W,10.6,91.76,140923,,,D*65
$GPGST,172618.00,0.56,0.318,0.236,11,0.316,0.240,0.577*4B
$INHDT,97.45,T*2A
$INZDA,172619.58,14,09,2023,,*7E
$INGGA,172619.00,4331.421529,N,05840.160590,W,2,08,1.2,1.31,M,-16.97,M,0.4,0001*6E
$INVTG,92.81,T,,M,10.5,N,19.4,K,D*12
$INRMC,172619.00,A,4331.421529,N,05840.160590,W,10.5,92.81,140923,,,D*66
$GPGST,172619.00,0.56,0.318,0.236,11,0.316,0.240,0.577*4A
$INHDT,97.47,T*28
$INZDA,172620.58,14,09,2023,,*74
$INGGA,172620.00,4331.421322,N,05840.156584,W,2,08,1.2,1.17,M,-16.97,M,0.2,0001*6B
$INVTG,94.14,T,,M,10.5,N,19.5,K,D*19
$INRMC,172620.00,A,4331.421322,N,05840.156584,W,10.5,94.14,140923,,,D*6B
$GPGST,172620.00,0.56,0.318,0.236,11,0.316,0.240,0.577*40
$INHDT,97.43,T*2C
$INZDA,172621.58,14,09,2023,,*75
$INGGA,172621.00,4331.421033,N,05840.152517,W,2,08,1.2,0.93,M,-16.97,M,0.0,0001*68
$INVTG,95.54,T,,M,10.7,N,19.8,K,D*13
$INRMC,172621.00,A,4331.421033,N,05840.152517,W,10.7,95.54,140923,,,D*60
$GPGST,172621.00,0.56,0.318,0.236,11,0.316,0.240,0.577*41
$INHDT,97.47,T*28
$INZDA,172622.58,14,09,2023,,*76
$INGGA,172622.00,4331.420669,N,05840.148410,W,2,08,1.2,0.61,M,-16.97,M,0.4,0001*67
$INVTG,96.85,T,,M,10.8,N,20.0,K,D*11
$INRMC,172622.00,A,4331.420669,N,05840.148410,W,10.8,96.85,140923,,,D*66
$GPGST,172622.00,0.56,0.318,0.236,11,0.316,0.240,0.577*42
$INHDT,97.56,T*28
$INZDA,172623.58,14,09,2023,,*77
$INGGA,172623.00,4331.420234,N,05840.144408,W,2,08,1.2,0.47,M,-16.97,M,0.2,0001*6D
$INVTG,98.39,T,,M,10.6,N,19.6,K,D*1A
$INRMC,172623.00,A,4331.420234,N,05840.144408,W,10.6,98.39,140923,,,D*69
$GPGST,172623.00,0.56,0.318,0.236,11,0.316,0.240,0.577*43
$INHDT,97.48,T*27
$INZDA,172624.58,14,09,2023,,*70
$INGGA,172624.00,4331.419763,N,05840.140544,W,2,08,1.2,0.67,M,-16.96,M,0.0,0001*6B
$INVTG,99.42,T,,M,10.3,N,19.0,K,D*14
$INRMC,172624.00,A,4331.419763,N,05840.140544,W,10.3,99.42,140923,,,D*66
$GPGST,172624.00,0.56,0.318,0.236,11,0.316,0.240,0.577*44
$INHDT,97.21,T*28
$INZDA,172625.58,14,09,2023,,*71
$INGGA,172625.00,4331.419299,N,05840.136685,W,2,08,1.2,1.03,M,-16.96,M,1.0,0001*67
$INVTG,99.43,T,,M,10.3,N,19.0,K,D*15
$INRMC,172625.00,A,4331.419299,N,05840.136685,W,10.3,99.43,140923,,,D*69
$GPGST,172625.00,0.56,0.318,0.236,11,0.316,0.240,0.577*45
$INHDT,96.98,T*2B
$INZDA,172626.58,14,09,2023,,*72
$INGGA,172626.00,4331.418925,N,05840.132697,W,2,08,1.2,1.33,M,-16.96,M,1.4,0001*69
$INVTG,97.58,T,,M,10.5,N,19.4,K,D*13
$INRMC,172626.00,A,4331.418925,N,05840.132697,W,10.5,97.58,140923,,,D*62
$GPGST,172626.00,0.56,0.318,0.236,11,0.316,0.240,0.577*46
$INHDT,97.01,T*2A
$INZDA,172627.58,14,09,2023,,*73
$INGGA,172627.00,4331.418691,N,05840.128664,W,2,08,1.2,1.49,M,-16.96,M,1.2,0001*64
$INVTG,94.65,T,,M,10.6,N,19.6,K,D*1F
$INRMC,172627.00,A,4331.418691,N,05840.128664,W,10.6,94.65,140923,,,D*6A
$GPGST,172627.00,0.56,0.318,0.236,11,0.316,0.240,0.577*47
$INHDT,97.17,T*2D
$INZDA,172628.58,14,09,2023,,*7C
$INGGA,172628.00,4331.418576,N,05840.124662,W,2,08,1.2,1.66,M,-16.96,M,0.4,0001*61
$INVTG,92.13,T,,M,10.5,N,19.4,K,D*19
$INRMC,172628.00,A,4331.418576,N,05840.124662,W,10.5,92.13,140923,,,D*61
$GPGST,172628.00,0.56,0.318,0.236,11,0.316,0.240,0.577*48
$INHDT,97.28,T*21
$INZDA,172629.58,14,09,2023,,*7D
$INGGA,172629.00,4331.418523,N,05840.120718,W,2,08,1.2,1.86,M,-16.96,M,0.2,0001*60
$INVTG,91.06,T,,M,10.3,N,19.1,K,D*1D
$INRMC,172629.00,A,4331.418523,N,05840.120718,W,10.3,91.06,140923,,,D*69
$GPGST,172629.00,0.56,0.318,0.236,11,0.316,0.240,0.577*49
$INHDT,97.26,T*2F
$INZDA,172630.58,14,09,2023,,*75
$INGGA,172630.00,4331.418471,N,05840.116774,W,2,08,1.2,1.94,M,-16.96,M,0.0,0001*60
$INVTG,91.07,T,,M,10.3,N,19.1,K,D*1C
$INRMC,172630.00,A,4331.418471,N,05840.116774,W,10.3,91.07,140923,,,D*69
$GPGST,172630.00,0.56,0.318,0.236,11,0.316,0.240,0.577*41
$INHDT,97.23,T*2A
$INZDA,172631.58,14,09,2023,,*74
$INGGA,172631.00,4331.418385,N,05840.112718,W,2,08,1.2,1.71,M,-16.96,M,0.4,0001*6C
$INVTG,91.72,T,,M,10.6,N,19.7,K,D*1D
$INRMC,172631.00,A,4331.418385,N,05840.112718,W,10.6,91.72,140923,,,D*6D
$GPGST,172631.00,0.56,0.318,0.236,11,0.316,0.240,0.577*40
$INHDT,97.29,T*20
$INZDA,172632.58,14,09,2023,,*77
$INGGA,172632.00,4331.418238,N,05840.108564,W,2,08,1.2,1.20,M,-16.96,M,0.2,0001*68
$INVTG,92.73,T,,M,10.9,N,20.2,K,D*1F
$INRMC,172632.00,A,4331.418238,N,05840.108564,W,10.9,92.73,140923,,,D*66
$GPGST,172632.00,0.56,0.318,0.236,11,0.316,0.240,0.577*43
$INHDT,97.46,T*29
$INZDA,172633.58,14,09,2023,,*76
$INGGA,172633.00,4331.418023,N,05840.104425,W,2,08,1.2,0.69,M,-16.96,M,0.0,0001*67
$INVTG,94.14,T,,M,10.9,N,20.1,K,D*1B
$INRMC,172633.00,A,4331.418023,N,05840.104425,W,10.9,94.14,140923,,,D*60
$GPGST,172633.00,0.56,0.318,0.236,11,0.316,0.240,0.577*42
$INHDT,97.52,T*2C
$INZDA,172634.58,14,09,2023,,*71
$INGGA,172634.00,4331.417697,N,05840.100371,W,2,08,1.2,0.43,M,-16.96,M,1.0,0001*6D
$INVTG,96.26,T,,M,10.7,N,19.8,K,D*15
$INRMC,172634.00,A,4331.417697,N,05840.100371,W,10.7,96.26,140923,,,D*6E
$GPGST,172634.00,0.56,0.318,0.236,11,0.316,0.240,0.577*45
$INHDT,97.43,T*2C
$INZDA,172635.58,14,09,2023,,*70
$INGGA,172635.00,4331.417295,N,05840.096377,W,2,08,1.2,0.50,M,-16.96,M,1.4,0001*64
$INVTG,98.01,T,,M,10.6,N,19.5,K,D*12
$INRMC,172635.00,A,4331.417295,N,05840.096377,W,10.6,98.01,140923,,,D*6B
$GPGST,172635.00,0.56,0.318,0.236,11,0.316,0.240,0.577*44
$INHDT,97.34,T*2C
$INZDA,172636.58,14,09,2023,,*73
$INGGA,172636.00,4331.416850,N,05840.092439,W,2,08,1.2,0.81,M,-16.96,M,0.0,0001*65
$INVTG,98.67,T,,M,10.4,N,19.3,K,D*16
$INRMC,172636.00,A,4331.416850,N,05840.092439,W,10.4,98.67,140923,,,D*61
$GPGST,172636.00,0.56,0.318,0.236,11,0.316,0.240,0.577*47
$INHDT,97.31,T*29
$INZDA,172637.58,14,09,2023,,*72
$INGGA,172637.00,4331.416481,N,05840.088546,W,2,08,1.2,1.23,M,-16.96,M,0.4,0001*6B
$INVTG,97.34,T,,M,10.3,N,19.1,K,D*1A
$INRMC,172637.00,A,4331.416481,N,05840.088546,W,10.3,97.34,140923,,,D*6C
$GPGST,172637.00,0.56,0.318,0.236,11,0.316,0.240,0.577*46
$INHDT,97.34,T*2C
$INZDA,172638.58,14,09,2023,,*7D
$INGGA,172638.00,4331.416229,N,05840.084623,W,2,08,1.2,1.64,M,-16.96,M,0.2,0001*69
$INVTG,95.15,T,,M,10.3,N,19.1,K,D*1B
$INRMC,172638.00,A,4331.416229,N,05840.084623,W,10.3,95.15,140923,,,D*6A
$GPGST,172638.00,0.56,0.318,0.236,11,0.316,0.240,0.577*49
$INHDT,97.44,T*2B
$INZDA,172639.58,14,09,2023,,*7C
$INGGA,172639.00,4331.416071,N,05840.080623,W,2,08,1.2,1.88,M,-16.96,M,0.0,0001*63
$INVTG,92.98,T,,M,10.5,N,19.4,K,D*1A
$INRMC,172639.00,A,4331.416071,N,05840.080623,W,10.5,92.98,140923,,,D*64
$GPGST,172639.00,0.56,0.318,0.236,11,0.316,0.240,0.577*48
$INHDT,97.54,T*2A
$INZDA,172640.58,14,09,2023,,*72
$INGGA,172640.00,4331.415963,N,05840.076588,W,2,08,1.2,1.91,M,-16.96,M,0.4,0001*63
$INVTG,92.09,T,,M,10.6,N,19.6,K,D*13
$INRMC,172640.00,A,4331.415963,N,05840.076588,W,10.6,92.09,140923,,,D*63
$GPGST,172640.00,0.56,0.318,0.236,11,0.316,0.240,0.577*46
$INHDT,97.60,T*2D
$INZDA,172641.58,14,09,2023,,*73
$INGGA,172641.00,4331.415846,N,05840.072519,W,2,08,1.2,1.71,M,-16.96,M,0.2,0001*60
$INVTG,92.27,T,,M,10.6,N,19.7,K,D*1E
$INRMC,172641.00,A,4331.415846,N,05840.072519,W,10.6,92.27,140923,,,D*64
$GPGST,172641.00,0.56,0.318,0.236,11,0.316,0.240,0.577*47
$INHDT,97.67,T*2A
$INZDA,172642.58,14,09,2023,,*70
$INGGA,172642.00,4331.415698,N,05840.068448,W,2,08,1.2,1.31,M,-16.96,M,1.2,0001*65
$INVTG,92.88,T,,M,10.7,N,19.8,K,D*15
$INRMC,172642.00,A,4331.415698,N,05840.068448,W,10.7,92.88,140923,,,D*60
$GPGST,172642.00,0.56,0.318,0.236,10,0.316,0.240,0.577*45
$INHDT,97.88,T*2B
$INZDA,172643.58,14,09,2023,,*71
$INGGA,172643.00,4331.415504,N,05840.064410,W,2,08,1.2,0.88,M,-16.96,M,1.0,0001*62
$INVTG,93.97,T,,M,10.6,N,19.6,K,D*15
$INRMC,172643.00,A,4331.415504,N,05840.064410,W,10.6,93.97,140923,,,D*68
$GPGST,172643.00,0.56,0.318,0.236,10,0.316,0.240,0.577*44
$INHDT,98.02,T*26
$INZDA,172644.58,14,09,2023,,*76
$INGGA,172644.00,4331.415191,N,05840.060407,W,2,08,1.2,0.59,M,-16.96,M,1.4,0001*67
$INVTG,95.99,T,,M,10.5,N,19.5,K,D*1D
$INRMC,172644.00,A,4331.415191,N,05840.060407,W,10.5,95.99,140923,,,D*6E
$GPGST,172644.00,0.56,0.318,0.236,10,0.316,0.240,0.577*43
$INHDT,98.00,T*24
$INZDA,172645.58,14,09,2023,,*77
$INGGA,172645.00,4331.414798,N,05840.056406,W,2,08,1.2,0.49,M,-16.96,M,0.0,0001*68
$INVTG,97.75,T,,M,10.6,N,19.6,K,D*1D
$INRMC,172645.00,A,4331.414798,N,05840.056406,W,10.6,97.75,140923,,,D*66
$GPGST,172645.00,0.56,0.318,0.236,10,0.316,0.240,0.576*43
$INHDT,97.93,T*21
$INZDA,172646.58,14,09,2023,,*74
$INGGA,172646.00,4331.414384,N,05840.052376,W,2,08,1.2,0.63,M,-16.96,M,0.4,0001*6A
$INVTG,97.91,T,,M,10.7,N,19.7,K,D*17
$INRMC,172646.00,A,4331.414384,N,05840.052376,W,10.7,97.91,140923,,,D*63
$GPGST,172646.00,0.56,0.318,0.236,10,0.316,0.240,0.576*40
$INHDT,97.99,T*2B
$INZDA,172647.58,14,09,2023,,*75
$INGGA,172647.00,4331.414027,N,05840.048359,W,2,08,1.2,0.90,M,-16.96,M,0.2,0001*6D
$INVTG,96.89,T,,M,10.6,N,19.6,K,D*1F
$INRMC,172647.00,A,4331.414027,N,05840.048359,W,10.6,96.89,140923,,,D*67
$GPGST,172647.00,0.56,0.318,0.236,10,0.316,0.240,0.576*41
$INHDT,98.09,T*2D
$INZDA,172648.58,14,09,2023,,*7A
$INGGA,172648.00,4331.413751,N,05840.044358,W,2,08,1.2,1.28,M,-16.96,M,0.0,0001*6E
$INVTG,95.32,T,,M,10.5,N,19.5,K,D*1C
$INRMC,172648.00,A,4331.413751,N,05840.044358,W,10.5,95.32,140923,,,D*64
$GPGST,172648.00,0.56,0.318,0.236,10,0.316,0.240,0.576*4E
$INHDT,98.07,T*23
$INZDA,172649.58,14,09,2023,,*7B
$INGGA,172649.00,4331.413544,N,05840.040344,W,2,08,1.2,1.63,M,-16.96,M,0.4,0001*6B
$INVTG,94.01,T,,M,10.5,N,19.5,K,D*1D
$INRMC,172649.00,A,4331.413544,N,05840.040344,W,10.5,94.01,140923,,,D*6B
$GPGST,172649.00,0.56,0.318,0.236,10,0.316,0.240,0.576*4F
$INHDT,98.01,T*25
$INZDA,172650.58,14,09,2023,,*73
$INGGA,172650.00,4331.413381,N,05840.036333,W,2,08,1.2,1.78,M,-16.96,M,0.2,0001*61
$INVTG,93.24,T,,M,10.5,N,19.5,K,D*1D
$INRMC,172650.00,A,4331.413381,N,05840.036333,W,10.5,93.24,140923,,,D*6D
$GPGST,172650.00,0.56,0.318,0.236,10,0.316,0.240,0.576*47
$INHDT,98.08,T*2C
$INZDA,172651.58,14,09,2023,,*72
$INGGA,172651.00,4331.413274,N,05840.032325,W,2,08,1.2,1.74,M,-16.96,M,1.2,0001*65
$INVTG,92.20,T,,M,10.5,N,19.5,K,D*18
$INRMC,172651.00,A,4331.413274,N,05840.032325,W,10.5,92.20,140923,,,D*61
$GPGST,172651.00,0.56,0.318,0.236,10,0.316,0.240,0.576*46
$INHDT,98.29,T*2F
$INZDA,172652.58,14,09,2023,,*71
$INGGA,172652.00,4331.413137,N,05840.028269,W,2,08,1.2,1.49,M,-16.96,M,1.0,0001*6C
$INVTG,92.46,T,,M,10.6,N,19.6,K,D*18
$INRMC,172652.00,A,4331.413137,N,05840.028269,W,10.6,92.46,140923,,,D*67
$GPGST,172652.00,0.56,0.318,0.236,10,0.316,0.240,0.576*45
$INHDT,98.44,T*24
$INZDA,172653.58,14,09,2023,,*70
$INGGA,172653.00,4331.412902,N,05840.024195,W,2,08,1.2,1.00,M,-16.96,M,0.2,0001*60
$INVTG,94.69,T,,M,10.7,N,19.9,K,D*1D
$INRMC,172653.00,A,4331.412902,N,05840.024195,W,10.7,94.69,140923,,,D*6F
$GPGST,172653.00,0.56,0.318,0.236,10,0.316,0.240,0.576*44
$INHDT,98.43,T*23
$INZDA,172654.58,14,09,2023,,*77
$INGGA,172654.00,4331.412522,N,05840.020116,W,2,08,1.2,0.52,M,-16.96,M,0.0,0001*62
$INVTG,97.26,T,,M,10.8,N,19.9,K,D*1A
$INRMC,172654.00,A,4331.412522,N,05840.020116,W,10.8,97.26,140923,,,D*6E
$GPGST,172654.00,0.56,0.318,0.236,10,0.316,0.240,0.576*43
$INHDT,98.29,T*2F
$INZDA,172655.58,14,09,2023,,*76
$INGGA,172655.00,4331.412069,N,05840.016115,W,2,08,1.2,0.24,M,-16.96,M,0.4,0001*6A
$INVTG,98.82,T,,M,10.6,N,19.7,K,D*1B
$INRMC,172655.00,A,4331.412069,N,05840.016115,W,10.6,98.82,140923,,,D*6C
$GPGST,172655.00,0.56,0.318,0.236,10,0.316,0.240,0.576*42
$INHDT,98.22,T*24
$INZDA,172656.58,14,09,2023,,*75
$INGGA,172656.00,4331.411602,N,05840.012198,W,2,08,1.2,0.34,M,-16.96,M,0.2,0001*67
$INVTG,99.23,T,,M,10.4,N,19.3,K,D*17
$INRMC,172656.00,A,4331.411602,N,05840.012198,W,10.4,99.23,140923,,,D*6E
$GPGST,172656.00,0.56,0.318,0.236,10,0.316,0.240,0.576*41
$INHDT,98.27,T*21
$INZDA,172657.58,14,09,2023,,*74
$INGGA,172657.00,4331.411188,N,05840.008314,W,2,08,1.2,0.71,M,-16.96,M,0.0,0001*6D
$INVTG,98.36,T,,M,10.3,N,19.1,K,D*17
$INRMC,172657.00,A,4331.411188,N,05840.008314,W,10.3,98.36,140923,,,D*65
$GPGST,172657.00,0.56,0.318,0.236,10,0.316,0.240,0.576*40
$INHDT,98.33,T*24
$INZDA,172658.58,14,09,2023,,*7B
$INGGA,172658.00,4331.410833,N,05840.004400,W,2,08,1.2,1.16,M,-16.96,M,0.4,0001*60
$INVTG,97.00,T,,M,10.4,N,19.2,K,D*19
$INRMC,172658.00,A,4331.410833,N,05840.004400,W,10.4,97.00,140923,,,D*61
$GPGST,172658.00,0.56,0.318,0.236,10,0.316,0.240,0.576*4F
$INHDT,98.37,T*20
$INZDA,172659.58,14,09,2023,,*7A
$INGGA,172659.00,4331.410583,N,05840.000465,W,2,08,1.2,1.48,M,-16.96,M,0.2,0001*6D
$INVTG,95.04,T,,M,10.3,N,19.2,K,D*18
$INRMC,172659.00,A,4331.410583,N,05840.000465,W,10.3,95.04,140923,,,D*60
$GPGST,172659.00,0.56,0.318,0.236,10,0.316,0.240,0.576*4E
$INHDT,98.45,T*25
$INZDA,172700.58,14,09,2023,,*77
$INGGA,172700.00,4331.410422,N,05839.996507,W,2,08,1.2,1.65,M,-16.96,M,1.2,0001*69
$INVTG,93.37,T,,M,10.4,N,19.2,K,D*19
$INRMC,172700.00,A,4331.410422,N,05839.996507,W,10.4,93.37,140923,,,D*6B
$GPGST,172700.00,0.56,0.318,0.236,10,0.316,0.240,0.576*43
$INHDT,98.59,T*28
$INZDA,172701.58,14,09,2023,,*76
$INGGA,172701.00,4331.410257,N,05839.992436,W,2,08,1.2,1.53,M,-16.96,M,1.0,0001*6C
$INVTG,93.00,T,,M,10.7,N,19.8,K,D*14
$INRMC,172701.00,A,4331.410257,N,05839.992436,W,10.7,93.00,140923,,,D*6E
$GPGST,172701.00,0.56,0.318,0.237,10,0.316,0.240,0.576*43
$INHDT,98.68,T*2A
$INZDA,172702.58,14,09,2023,,*75
$INGGA,172702.00,4331.410045,N,05839.988205,W,2,08,1.2,1.17,M,-16.96,M,0.2,0001*60
$INVTG,93.74,T,,M,11.1,N,20.5,K,D*17
$INRMC,172702.00,A,4331.410045,N,05839.988205,W,11.1,93.74,140923,,,D*65
$GPGST,172702.00,0.56,0.318,0.237,10,0.316,0.240,0.576*40
$INHDT,98.72,T*21
$INZDA,172703.58,14,09,2023,,*74
$INGGA,172703.00,4331.409790,N,05839.983957,W,2,08,1.2,0.77,M,-16.96,M,0.0,0001*64
$INVTG,94.70,T,,M,11.2,N,20.7,K,D*15
$INRMC,172703.00,A,4331.409790,N,05839.983957,W,11.2,94.70,140923,,,D*64
$GPGST,172703.00,0.56,0.318,0.237,10,0.316,0.240,0.576*41
$INHDT,98.70,T*23
$INZDA,172704.58,14,09,2023,,*73
$INGGA,172704.00,4331.409493,N,05839.979854,W,2,08,1.2,0.65,M,-16.96,M,0.4,0001*63
$INVTG,95.80,T,,M,10.8,N,20.1,K,D*16
$INRMC,172704.00,A,4331.409493,N,05839.979854,W,10.8,95.80,140923,,,D*61
$GPGST,172704.00,0.56,0.318,0.237,10,0.316,0.240,0.576*46
$INHDT,98.67,T*25
$INZDA,172705.58,14,09,2023,,*72
$INGGA,172705.00,4331.409154,N,05839.975945,W,2,08,1.2,0.83,M,-16.96,M,0.2,0001*6F
$INVTG,96.79,T,,M,10.3,N,19.2,K,D*11
$INRMC,172705.00,A,4331.409154,N,05839.975945,W,10.3,96.79,140923,,,D*6D
$GPGST,172705.00,0.56,0.318,0.237,10,0.316,0.240,0.576*47
$INHDT,98.66,T*24
$INZDA,172706.58,14,09,2023,,*71
$INGGA,172706.00,4331.408785,N,05839.972074,W,2,08,1.2,1.15,M,-16.96,M,0.0,0001*67
$INVTG,97.42,T,,M,10.2,N,18.9,K,D*13
$INRMC,172706.00,A,4331.408785,N,05839.972074,W,10.2,97.42,140923,,,D*61
$GPGST,172706.00,0.56,0.318,0.237,10,0.316,0.240,0.576*44
$INHDT,98.62,T*20
$INZDA,172707.58,14,09,2023,,*70
$INGGA,172707.00,4331.408405,N,05839.968107,W,2,08,1.2,1.29,M,-16.96,M,0.4,0001*68
$INVTG,97.49,T,,M,10.5,N,19.4,K,D*13
$INRMC,172707.00,A,4331.408405,N,05839.968107,W,10.5,97.49,140923,,,D*69
$GPGST,172707.00,0.56,0.318,0.237,10,0.316,0.240,0.576*45
$INHDT,98.58,T*29
$INZDA,172708.58,14,09,2023,,*7F
$INGGA,172708.00,4331.408046,N,05839.964057,W,2,08,1.2,1.15,M,-16.96,M,0.2,0001*65
$INVTG,96.93,T,,M,10.7,N,19.8,K,D*1B
$INRMC,172708.00,A,4331.408046,N,05839.964057,W,10.7,96.93,140923,,,D*69
$GPGST,172708.00,0.56,0.318,0.237,10,0.316,0.240,0.576*4A
$INHDT,98.54,T*25
$INZDA,172709.58,14,09,2023,,*7E
$INGGA,172709.00,4331.407730,N,05839.960013,W,2,08,1.2,0.94,M,-16.96,M,1.2,0001*60
$INVTG,96.22,T,,M,10.7,N,19.7,K,D*1E
$INRMC,172709.00,A,4331.407730,N,05839.960013,W,10.7,96.22,140923,,,D*6F
$GPGST,172709.00,0.56,0.318,0.237,10,0.316,0.240,0.576*4B
$INHDT,98.57,T*26
$INZDA,172710.58,14,09,2023,,*76
$INGGA,172710.00,4331.407449,N,05839.956036,W,2,08,1.2,0.88,M,-16.96,M,1.0,0001*68
$INVTG,95.63,T,,M,10.5,N,19.4,K,D*19
$INRMC,172710.00,A,4331.407449,N,05839.956036,W,10.5,95.63,140923,,,D*6C
$GPGST,172710.00,0.56,0.318,0.237,10,0.316,0.240,0.576*43
$INHDT,98.65,T*27
$INZDA,172711.58,14,09,2023,,*77
$INGGA,172711.00,4331.407180,N,05839.952153,W,2,08,1.2,0.91,M,-16.96,M,0.2,0001*64
$INVTG,95.49,T,,M,10.2,N,19.0,K,D*12
$INRMC,172711.00,A,4331.407180,N,05839.952153,W,10.2,95.49,140923,,,D*64
$GPGST,172711.00,0.56,0.318,0.237,10,0.316,0.240,0.575*41
$INHDT,98.64,T*26
$INZDA,172712.58,14,09,2023,,*74
$INGGA,172712.00,4331.406880,N,05839.948262,W,2,08,1.2,0.89,M,-16.96,M,0.0,0001*6E
$INVTG,96.10,T,,M,10.3,N,19.0,K,D*1C
$INRMC,172712.00,A,4331.406880,N,05839.948262,W,10.3,96.10,140923,,,D*6B
$GPGST,172712.00,0.56,0.318,0.237,10,0.316,0.240,0.575*42
$INHDT,98.58,T*29
$INZDA,172713.58,14,09,2023,,*75
$INGGA,172713.00,4331.406535,N,05839.944269,W,2,08,1.2,0.76,M,-16.96,M,0.4,0001*6F
$INVTG,96.65,T,,M,10.5,N,19.5,K,D*1D
$INRMC,172713.00,A,4331.406535,N,05839.944269,W,10.5,96.65,140923,,,D*6A
$GPGST,172713.00,0.56,0.318,0.237,10,0.316,0.240,0.575*43
$INHDT,98.57,T*26
$INZDA,172714.58,14,09,2023,,*72
$INGGA,172714.00,4331.406161,N,05839.940211,W,2,08,1.2,0.64,M,-16.95,M,0.2,0001*60
$INVTG,97.28,T,,M,10.7,N,19.8,K,D*1A
$INRMC,172714.00,A,4331.406161,N,05839.940211,W,10.7,97.28,140923,,,D*69
$GPGST,172714.00,0.56,0.318,0.237,10,0.316,0.240,0.575*44
$INHDT,98.66,T*24
$INZDA,172715.58,14,09,2023,,*73
$INGGA,172715.00,4331.405775,N,05839.936211,W,2,08,1.2,0.74,M,-16.95,M,0.0,0001*63
$INVTG,97.66,T,,M,10.6,N,19.6,K,D*1F
$INRMC,172715.00,A,4331.405775,N,05839.936211,W,10.6,97.66,140923,,,D*62
$GPGST,172715.00,0.56,0.318,0.237,10,0.316,0.240,0.575*45
$INHDT,98.81,T*2D
$INZDA,172716.58,14,09,2023,,*70
$INGGA,172716.00,4331.405398,N,05839.932257,W,2,08,1.2,1.05,M,-16.95,M,0.4,0001*62
$INVTG,97.47,T,,M,10.4,N,19.3,K,D*1B
$INRMC,172716.00,A,4331.405398,N,05839.932257,W,10.4,97.47,140923,,,D*61
$GPGST,172716.00,0.56,0.318,0.237,10,0.316,0.240,0.575*46
$INHDT,98.83,T*2F
$INZDA,172717.58,14,09,2023,,*71
$INGGA,172717.00,4331.405050,N,05839.928268,W,2,08,1.2,1.40,M,-16.95,M,1.4,0001*63
$INVTG,96.87,T,,M,10.5,N,19.5,K,D*11
$INRMC,172717.00,A,4331.405050,N,05839.928268,W,10.5,96.87,140923,,,D*6C
$GPGST,172717.00,0.56,0.318,0.237,10,0.316,0.240,0.575*47
$INHDT,98.72,T*21
$INZDA,172718.58,14,09,2023,,*7E
$INGGA,172718.00,4331.404748,N,05839.924159,W,2,08,1.2,1.53,M,-16.95,M,1.2,0001*6A
$INVTG,95.73,T,,M,10.8,N,20.1,K,D*1A
$INRMC,172718.00,A,4331.404748,N,05839.924159,W,10.8,95.73,140923,,,D*64
$GPGST,172718.00,0.56,0.318,0.237,10,0.316,0.240,0.575*48
$INHDT,98.71,T*22
$INZDA,172719.58,14,09,2023,,*7F
$INGGA,172719.00,4331.404525,N,05839.919987,W,2,08,1.2,1.55,M,-16.95,M,1.0,0001*63
$INVTG,94.06,T,,M,10.9,N,20.3,K,D*1A
$INRMC,172719.00,A,4331.404525,N,05839.919987,W,10.9,94.06,140923,,,D*6B
$GPGST,172719.00,0.56,0.318,0.237,10,0.316,0.240,0.575*49
$INHDT,98.79,T*2A
$INZDA,172720.58,14,09,2023,,*75
$INGGA,172720.00,4331.404372,N,05839.915832,W,2,08,1.2,1.52,M,-16.95,M,0.2,0001*6A
$INVTG,92.96,T,,M,10.9,N,20.2,K,D*14
$INRMC,172720.00,A,4331.404372,N,05839.915832,W,10.9,92.96,140923,,,D*69
$GPGST,172720.00,0.56,0.318,0.237,10,0.316,0.240,0.575*43
$INHDT,98.83,T*2F
$INZDA,172721.58,14,09,2023,,*74
$INGGA,172721.00,4331.404239,N,05839.911691,W,2,08,1.2,1.41,M,-16.95,M,0.0,0001*66
$INVTG,92.52,T,,M,10.9,N,20.1,K,D*1F
$INRMC,172721.00,A,4331.404239,N,05839.911691,W,10.9,92.52,140923,,,D*6D
$GPGST,172721.00,0.56,0.318,0.237,10,0.316,0.240,0.575*42
$INHDT,98.80,T*2C
$INZDA,172722.58,14,09,2023,,*77
$INGGA,172722.00,4331.404067,N,05839.907596,W,2,08,1.2,1.19,M,-16.95,M,0.4,0001*66
$INVTG,93.39,T,,M,10.7,N,19.9,K,D*1F
$INRMC,172722.00,A,4331.404067,N,05839.907596,W,10.7,93.39,140923,,,D*66
$GPGST,172722.00,0.56,0.318,0.237,10,0.316,0.240,0.575*41
$INHDT,98.78,T*2B
$INZDA,172723.58,14,09,2023,,*76
$INGGA,172723.00,4331.403796,N,05839.903642,W,2,08,1.2,0.88,M,-16.95,M,0.2,0001*68
$INVTG,95.37,T,,M,10.4,N,19.3,K,D*1E
$INRMC,172723.00,A,4331.403796,N,05839.903642,W,10.4,95.37,140923,,,D*6C
$GPGST,172723.00,0.56,0.318,0.237,10,0.316,0.240,0.575*40
$INHDT,98.75,T*26
$INZDA,172724.58,14,09,2023,,*71
$INGGA,172724.00,4331.403417,N,05839.899817,W,2,08,1.2,0.64,M,-16.95,M,0.0,0001*69
$INVTG,97.64,T,,M,10.1,N,18.7,K,D*1A
$INRMC,172724.00,A,4331.403417,N,05839.899817,W,10.1,97.64,140923,,,D*6C
$GPGST,172724.00,0.56,0.318,0.237,10,0.316,0.240,0.575*47
$INHDT,98.68,T*2A
$INZDA,172725.58,14,09,2023,,*70
$INGGA,172725.00,4331.402914,N,05839.895987,W,2,08,1.2,0.45,M,-16.95,M,0.4,0001*64
$INVTG,100.12,T,,M,10.2,N,18.9,K,D*29
$INRMC,172725.00,A,4331.402914,N,05839.895987,W,10.2,100.12,140923,,,D*5B
$GPGST,172725.00,0.56,0.318,0.237,10,0.316,0.240,0.575*46
$INHDT,98.60,T*22
$INZDA,172726.58,14,09,2023,,*73
$INGGA,172726.00,4331.402351,N,05839.892060,W,2,08,1.2,0.32,M,-16.95,M,1.4,0001*6A
$INVTG,101.08,T,,M,10.5,N,19.4,K,D*28
$INRMC,172726.00,A,4331.402351,N,05839.892060,W,10.5,101.08,140923,,,D*59
$GPGST,172726.00,0.56,0.318,0.237,10,0.316,0.240,0.575*45
$INHDT,98.59,T*28
$INZDA,172727.58,14,09,2023,,*72
$INGGA,172727.00,4331.401815,N,05839.888067,W,2,08,1.2,0.27,M,-16.95,M,1.2,0001*6D
$INVTG,100.58,T,,M,10.6,N,19.7,K,D*2C
$INRMC,172727.00,A,4331.401815,N,05839.888067,W,10.6,100.58,140923,,,D*5B
$GPGST,172727.00,0.56,0.318,0.237,10,0.316,0.240,0.575*44
$INHDT,98.63,T*21
$INZDA,172728.58,14,09,2023,,*7D
$INGGA,172728.00,4331.401353,N,05839.884099,W,2,08,1.2,0.52,M,-16.95,M,0.4,0001*63
$INVTG,98.97,T,,M,10.5,N,19.5,K,D*1E
$INRMC,172728.00,A,4331.401353,N,05839.884099,W,10.5,98.97,140923,,,D*60
$GPGST,172728.00,0.56,0.318,0.237,10,0.316,0.240,0.575*4B
$INHDT,98.67,T*25
$INZDA,172729.58,14,09,2023,,*7C
$INGGA,172729.00,4331.400997,N,05839.880196,W,2,08,1.2,0.96,M,-16.95,M,0.2,0001*65
$INVTG,97.24,T,,M,10.3,N,19.1,K,D*1B
$INRMC,172729.00,A,4331.400997,N,05839.880196,W,10.3,97.24,140923,,,D*69
$GPGST,172729.00,0.56,0.318,0.237,10,0.316,0.240,0.575*4A
$INHDT,98.65,T*27
$INZDA,172730.58,14,09,2023,,*74
$INGGA,172730.00,4331.400727,N,05839.876269,W,2,08,1.2,1.43,M,-16.95,M,0.0,0001*69
$INVTG,95.50,T,,M,10.3,N,19.1,K,D*1A
$INRMC,172730.00,A,4331.400727,N,05839.876269,W,10.3,95.50,140923,,,D*6F
$GPGST,172730.00,0.56,0.318,0.237,10,0.316,0.240,0.575*42
$INHDT,98.66,T*24
$INZDA,172731.58,14,09,2023,,*75
$INGGA,172731.00,4331.400526,N,05839.872283,W,2,08,1.2,1.71,M,-16.95,M,0.4,0001*6E
$INVTG,93.97,T,,M,10.5,N,19.4,K,D*14
$INRMC,172731.00,A,4331.400526,N,05839.872283,W,10.5,93.97,140923,,,D*66
$GPGST,172731.00,0.56,0.318,0.237,10,0.316,0.240,0.575*43
$INHDT,98.79,T*2A
$INZDA,172732.58,14,09,2023,,*76
$INGGA,172732.00,4331.400384,N,05839.868141,W,2,08,1.2,1.69,M,-16.95,M,0.2,0001*6A
$INVTG,92.74,T,,M,10.8,N,20.1,K,D*1A
$INRMC,172732.00,A,4331.400384,N,05839.868141,W,10.8,92.74,140923,,,D*6C
$GPGST,172732.00,0.56,0.318,0.237,10,0.316,0.240,0.575*40
$INHDT,98.98,T*25
$INZDA,172733.58,14,09,2023,,*77
$INGGA,172733.00,4331.400246,N,05839.863842,W,2,08,1.2,1.42,M,-16.95,M,0.0,0001*6E
$INVTG,92.57,T,,M,11.3,N,20.9,K,D*19
$INRMC,172733.00,A,4331.400246,N,05839.863842,W,11.3,92.57,140923,,,D*68
$GPGST,172733.00,0.56,0.318,0.237,10,0.316,0.240,0.575*41
$INHDT,99.09,T*2C
$INZDA,172734.58,14,09,2023,,*70
$INGGA,172734.00,4331.400049,N,05839.859500,W,2,08,1.2,1.06,M,-16.95,M,1.0,0001*67
$INVTG,93.53,T,,M,11.4,N,21.1,K,D*12
$INRMC,172734.00,A,4331.400049,N,05839.859500,W,11.4,93.53,140923,,,D*62
$GPGST,172734.00,0.56,0.318,0.237,10,0.316,0.240,0.575*46
$INHDT,99.04,T*21
$INZDA,172735.58,14,09,2023,,*71
$INGGA,172735.00,4331.399782,N,05839.855287,W,2,08,1.2,0.96,M,-16.95,M,1.4,0001*69
$INVTG,94.85,T,,M,11.1,N,20.5,K,D*1E
$INRMC,172735.00,A,4331.399782,N,05839.855287,W,11.1,94.85,140923,,,D*69
$GPGST,172735.00,0.56,0.318,0.237,10,0.316,0.240,0.575*47
$INHDT,98.88,T*24
$INZDA,172736.58,14,09,2023,,*72
$INGGA,172736.00,4331.399479,N,05839.851298,W,2,08,1.2,1.04,M,-16.95,M,1.2,0001*6B
$INVTG,96.00,T,,M,10.5,N,19.5,K,D*1E
$INRMC,172736.00,A,4331.399479,N,05839.851298,W,10.5,96.00,140923,,,D*6D
$GPGST,172736.00,0.56,0.318,0.237,10,0.316,0.240,0.575*44
$INHDT,98.70,T*23
$INZDA,172737.58,14,09,2023,,*73
$INGGA,172737.00,4331.399134,N,05839.847483,W,2,08,1.2,1.23,M,-16.95,M,0.4,0001*6F
$INVTG,96.83,T,,M,10.1,N,18.7,K,D*12
$INRMC,172737.00,A,4331.399134,N,05839.847483,W,10.1,96.83,140923,,,D*64
$GPGST,172737.00,0.56,0.318,0.237,10,0.316,0.240,0.575*45
$INHDT,98.54,T*25
$INZDA,172738.58,14,09,2023,,*7C
$INGGA,172738.00,4331.398795,N,05839.843748,W,2,08,1.2,1.34,M,-16.95,M,0.2,0001*6C
$INVTG,97.06,T,,M,9.9,N,18.2,K,D*2B
$INRMC,172738.00,A,4331.398795,N,05839.843748,W,9.9,97.06,140923,,,D*5B
$GPGST,172738.00,0.56,0.318,0.237,10,0.316,0.240,0.574*4B
$INHDT,98.50,T*21
$INZDA,172739.58,14,09,2023,,*7D
$INGGA,172739.00,4331.398432,N,05839.839952,W,2,08,1.2,1.18,M,-16.95,M,0.0,0001*67
$INVTG,97.58,T,,M,10.0,N,18.6,K,D*15
$INRMC,172739.00,A,4331.398432,N,05839.839952,W,10.0,97.58,140923,,,D*66
$GPGST,172739.00,0.56,0.318,0.237,10,0.316,0.240,0.574*4A
$INHDT,98.55,T*24
$INZDA,172740.58,14,09,2023,,*73
$INGGA,172740.00,4331.398015,N,05839.835967,W,2,08,1.2,0.79,M,-16.95,M,0.4,0001*60
$INVTG,98.18,T,,M,10.5,N,19.5,K,D*19
$INRMC,172740.00,A,4331.398015,N,05839.835967,W,10.5,98.18,140923,,,D*6D
$GPGST,172740.00,0.56,0.318,0.237,10,0.316,0.240,0.574*44
$INHDT,98.64,T*26
$INZDA,172741.58,14,09,2023,,*72
$INGGA,172741.00,4331.397525,N,05839.831842,W,2,08,1.2,0.31,M,-16.95,M,0.2,0001*60
$INVTG,99.29,T,,M,10.9,N,20.2,K,D*1B
$INRMC,172741.00,A,4331.397525,N,05839.831842,W,10.9,99.29,140923,,,D*68
$GPGST,172741.00,0.56,0.318,0.237,10,0.316,0.240,0.574*45
$INHDT,98.75,T*26
$INZDA,172742.58,14,09,2023,,*71
$INGGA,172742.00,4331.397029,N,05839.827713,W,2,08,1.2,0.04,M,-16.95,M,0.0,0001*62
$INVTG,99.54,T,,M,11.0,N,20.3,K,D*18
$INRMC,172742.00,A,4331.397029,N,05839.827713,W,11.0,99.54,140923,,,D*6C
$GPGST,172742.00,0.56,0.318,0.237,10,0.316,0.240,0.574*46
$INHDT,98.79,T*2A
$INZDA,172743.58,14,09,2023,,*70
$INGGA,172743.00,4331.396568,N,05839.823679,W,2,08,1.2,0.15,M,-16.95,M,1.0,0001*6A
$INVTG,98.97,T,,M,10.7,N,19.9,K,D*10
$INRMC,172743.00,A,4331.396568,N,05839.823679,W,10.7,98.97,140923,,,D*6D
$GPGST,172743.00,0.55,0.318,0.237,10,0.316,0.240,0.574*44
$INHDT,98.68,T*2A
$INZDA,172744.58,14,09,2023,,*77
$INGGA,172744.00,4331.396191,N,05839.819715,W,2,08,1.2,0.59,M,-16.95,M,1.4,0001*61
$INVTG,97.57,T,,M,10.5,N,19.5,K,D*1D
$INRMC,172744.00,A,4331.396191,N,05839.819715,W,10.5,97.57,140923,,,D*6B
$GPGST,172744.00,0.55,0.318,0.237,10,0.316,0.240,0.574*43
$INHDT,98.64,T*26
$INZDA,172745.58,14,09,2023,,*76
$INGGA,172745.00,4331.395947,N,05839.815790,W,2,08,1.2,1.29,M,-16.95,M,0.0,0001*62
$INVTG,95.11,T,,M,10.3,N,19.1,K,D*1F
$INRMC,172745.00,A,4331.395947,N,05839.815790,W,10.3,95.11,140923,,,D*6D
$GPGST,172745.00,0.55,0.318,0.237,10,0.316,0.240,0.574*42
$INHDT,98.68,T*2A
$INZDA,172746.58,14,09,2023,,*75
$INGGA,172746.00,4331.395801,N,05839.811909,W,2,08,1.2,1.88,M,-16.95,M,0.4,0001*67
$INVTG,93.04,T,,M,10.2,N,18.8,K,D*14
$INRMC,172746.00,A,4331.395801,N,05839.811909,W,10.2,93.04,140923,,,D*64
$GPGST,172746.00,0.55,0.318,0.237,10,0.316,0.240,0.574*41
$INHDT,98.72,T*21
$INZDA,172747.58,14,09,2023,,*74
$INGGA,172747.00,4331.395698,N,05839.807917,W,2,08,1.2,2.18,M,-16.95,M,0.2,0001*6C
$INVTG,92.07,T,,M,10.5,N,19.4,K,D*1C
$INRMC,172747.00,A,4331.395698,N,05839.807917,W,10.5,92.07,140923,,,D*66
$GPGST,172747.00,0.55,0.318,0.237,10,0.316,0.240,0.574*40
$INHDT,98.75,T*26
$INZDA,172748.58,14,09,2023,,*7B
$INGGA,172748.00,4331.395551,N,05839.803721,W,2,08,1.2,1.93,M,-16.95,M,0.0,0001*68
$INVTG,92.74,T,,M,11.0,N,20.3,K,D*11
$INRMC,172748.00,A,4331.395551,N,05839.803721,W,11.0,92.74,140923,,,D*60
$GPGST,172748.00,0.55,0.318,0.237,10,0.316,0.240,0.574*4F
$INHDT,98.80,T*2C
$INZDA,172749.58,14,09,2023,,*7A
$INGGA,172749.00,4331.395347,N,05839.799446,W,2,08,1.2,1.34,M,-16.95,M,0.4,0001*6F
$INVTG,93.68,T,,M,11.2,N,20.8,K,D*14
$INRMC,172749.00,A,4331.395347,N,05839.799446,W,11.2,93.68,140923,,,D*60
$GPGST,172749.00,0.55,0.318,0.237,10,0.316,0.240,0.574*4E
$INHDT,98.90,T*2D
$INZDA,172750.58,14,09,2023,,*72
$INGGA,172750.00,4331.395134,N,05839.795275,W,2,08,1.2,0.82,M,-16.95,M,0.2,0001*61
$INVTG,94.09,T,,M,11.0,N,20.4,K,D*1A
$INRMC,172750.00,A,4331.395134,N,05839.795275,W,11.0,94.09,140923,,,D*66
$GPGST,172750.00,0.55,0.318,0.237,10,0.316,0.240,0.574*46
$INHDT,98.92,T*2F
$INZDA,172751.58,14,09,2023,,*73
$INGGA,172751.00,4331.394885,N,05839.791281,W,2,08,1.2,0.66,M,-16.95,M,0.0,0001*65
$INVTG,94.86,T,,M,10.5,N,19.5,K,D*12
$INRMC,172751.00,A,4331.394885,N,05839.791281,W,10.5,94.86,140923,,,D*69
$GPGST,172751.00,0.55,0.318,0.237,10,0.316,0.240,0.574*47
$INHDT,98.86,T*2A
$INZDA,172752.58,14,09,2023,,*70
$INGGA,172752.00,4331.394548,N,05839.787402,W,2,08,1.2,0.68,M,-16.95,M,1.0,0001*6F
$INVTG,96.79,T,,M,10.2,N,18.9,K,D*1A
$INRMC,172752.00,A,4331.394548,N,05839.787402,W,10.2,96.79,140923,,,D*69
$GPGST,172752.00,0.55,0.318,0.237,10,0.316,0.240,0.574*44
$INHDT,98.77,T*24
$INZDA,172753.58,14,09,2023,,*71
$INGGA,172753.00,4331.394097,N,05839.783557,W,2,08,1.2,0.64,M,-16.95,M,1.4,0001*64
$INVTG,98.96,T,,M,10.2,N,18.9,K,D*15
$INRMC,172753.00,A,4331.394097,N,05839.783557,W,10.2,98.96,140923,,,D*65
$GPGST,172753.00,0.55,0.318,0.237,10,0.316,0.240,0.574*45
$INHDT,98.74,T*27
$INZDA,172754.58,14,09,2023,,*76
$INGGA,172754.00,4331.393570,N,05839.779640,W,2,08,1.2,0.48,M,-16.95,M,0.0,0001*63
$INVTG,100.58,T,,M,10.4,N,19.3,K,D*2A
$INRMC,172754.00,A,4331.393570,N,05839.779640,W,10.4,100.58,140923,,,D*5D
$GPGST,172754.00,0.55,0.318,0.237,10,0.316,0.240,0.574*42
$INHDT,98.76,T*25
$INZDA,172755.58,14,09,2023,,*77
$INGGA,172755.00,4331.393016,N,05839.775678,W,2,08,1.2,0.44,M,-16.95,M,0.4,0001*68
$INVTG,100.70,T,,M,10.6,N,19.6,K,D*27
$INRMC,172755.00,A,4331.393016,N,05839.775678,W,10.6,100.70,140923,,,D*56
$GPGST,172755.00,0.55,0.320,0.238,11,0.317,0.241,0.590*4C
$INHDT,98.75,T*26
$INZDA,172756.58,14,09,2023,,*74
$INGGA,172756.00,4331.392510,N,05839.771669,W,2,08,1.2,0.52,M,-16.95,M,0.2,0001*6C
$INVTG,99.86,T,,M,10.6,N,19.7,K,D*1E
$INRMC,172756.00,A,4331.392510,N,05839.771669,W,10.6,99.86,140923,,,D*6B
$GPGST,172756.00,0.55,0.320,0.238,11,0.317,0.241,0.590*4F
$INHDT,98.75,T*26
$INZDA,172757.58,14,09,2023,,*75
$INGGA,172757.00,4331.392092,N,05839.767708,W,2,08,1.2,0.88,M,-16.95,M,0.0,0001*66
$INVTG,98.36,T,,M,10.5,N,19.4,K,D*14
$INRMC,172757.00,A,4331.392092,N,05839.767708,W,10.5,98.36,140923,,,D*6D
$GPGST,172757.00,0.55,0.319,0.238,11,0.317,0.241,0.588*4D
$INHDT,98.81,T*2D
$INZDA,172758.58,14,09,2023,,*7A
$INGGA,172758.00,4331.391799,N,05839.763780,W,2,08,1.2,1.43,M,-16.95,M,0.4,0001*60
$INVTG,95.93,T,,M,10.3,N,19.2,K,D*16
$INRMC,172758.00,A,4331.391799,N,05839.763780,W,10.3,95.93,140923,,,D*6D
$GPGST,172758.00,0.55,0.319,0.238,11,0.317,0.241,0.587*4D
$INHDT,98.94,T*29
$INZDA,172759.58,14,09,2023,,*7B
$INGGA,172759.00,4331.391620,N,05839.759800,W,2,08,1.2,1.89,M,-16.95,M,0.2,0001*6C
$INVTG,93.63,T,,M,10.4,N,19.3,K,D*19
$INRMC,172759.00,A,4331.391620,N,05839.759800,W,10.4,93.63,140923,,,D*6F
$GPGST,172759.00,0.55,0.319,0.238,11,0.317,0.241,0.587*4C
$INHDT,99.07,T*22
$INZDA,172800.58,14,09,2023,,*78
$INGGA,172800.00,4331.391513,N,05839.755729,W,2,08,1.2,1.96,M,-16.95,M,0.0,0001*68
$INVTG,92.11,T,,M,10.7,N,19.8,K,D*15
$INRMC,172800.00,A,4331.391513,N,05839.755729,W,10.7,92.11,140923,,,D*60
$GPGST,172800.00,0.55,0.319,0.238,11,0.317,0.241,0.587*4F
$INHDT,99.23,T*24
$INZDA,172801.58,14,09,2023,,*79
$INGGA,172801.00,4331.391438,N,05839.751602,W,2,08,1.2,1.69,M,-16.95,M,1.0,0001*6C
$INVTG,91.52,T,,M,10.8,N,20.0,K,D*1C
$INRMC,172801.00,A,4331.391438,N,05839.751602,W,10.8,91.52,140923,,,D*6E
$GPGST,172801.00,0.55,0.319,0.238,10,0.317,0.241,0.587*4F
$INHDT,99.35,T*23
$INZDA,172802.58,14,09,2023,,*7A
$INGGA,172802.00,4331.391315,N,05839.747474,W,2,08,1.2,1.35,M,-16.95,M,1.4,0001*6E
$INVTG,92.33,T,,M,10.8,N,20.0,K,D*18
$INRMC,172802.00,A,4331.391315,N,05839.747474,W,10.8,92.33,140923,,,D*65
$GPGST,172802.00,0.55,0.319,0.238,10,0.317,0.241,0.587*4C
$INHDT,99.41,T*20
$INZDA,172803.58,14,09,2023,,*7B
$INGGA,172803.00,4331.391095,N,05839.743342,W,2,08,1.2,1.06,M,-16.95,M,0.0,0001*67
$INVTG,94.08,T,,M,10.9,N,20.1,K,D*16
$INRMC,172803.00,A,4331.391095,N,05839.743342,W,10.9,94.08,140923,,,D*66
$GPGST,172803.00,0.55,0.319,0.238,10,0.317,0.241,0.587*4D
$INHDT,99.41,T*20
$INZDA,172804.58,14,09,2023,,*7C
$INGGA,172804.00,4331.390782,N,05839.739225,W,2,08,1.2,0.90,M,-16.95,M,0.4,0001*67
$INVTG,95.96,T,,M,10.9,N,20.1,K,D*10
$INRMC,172804.00,A,4331.390782,N,05839.739225,W,10.9,95.96,140923,,,D*6A
$GPGST,172804.00,0.55,0.319,0.238,10,0.317,0.241,0.587*4A
$INHDT,99.33,T*25
$INZDA,172805.58,14,09,2023,,*7D
$INGGA,172805.00,4331.390395,N,05839.735170,W,2,08,1.2,0.81,M,-16.94,M,0.2,0001*6C
$INVTG,97.44,T,,M,10.7,N,19.8,K,D*10
$INRMC,172805.00,A,4331.390395,N,05839.735170,W,10.7,97.44,140923,,,D*65
$GPGST,172805.00,0.55,0.319,0.238,10,0.317,0.241,0.587*4B
$INHDT,99.11,T*25
$INZDA,172806.58,14,09,2023,,*7E
$INGGA,172806.00,4331.389949,N,05839.731264,W,2,08,1.2,0.83,M,-16.94,M,0.0,0001*6E
$INVTG,98.93,T,,M,10.3,N,19.2,K,D*1B
$INRMC,172806.00,A,4331.389949,N,05839.731264,W,10.3,98.93,140923,,,D*66
$GPGST,172806.00,0.55,0.319,0.238,10,0.317,0.241,0.587*48
$INHDT,98.87,T*2B
$INZDA,172807.58,14,09,2023,,*7F
$INGGA,172807.00,4331.389475,N,05839.727485,W,2,08,1.2,0.94,M,-16.94,M,0.4,0001*61
$INVTG,99.73,T,,M,10.1,N,18.6,K,D*13
$INRMC,172807.00,A,4331.389475,N,05839.727485,W,10.1,99.73,140923,,,D*66
$GPGST,172807.00,0.55,0.319,0.238,10,0.317,0.241,0.586*48
$INHDT,98.78,T*2B
$INZDA,172808.58,14,09,2023,,*70
$INGGA,172808.00,4331.389029,N,05839.723676,W,2,08,1.2,1.03,M,-16.94,M,0.2,0001*60
$INVTG,99.08,T,,M,10.1,N,18.7,K,D*1E
$INRMC,172808.00,A,4331.389029,N,05839.723676,W,10.1,99.08,140923,,,D*62
$GPGST,172808.00,0.55,0.319,0.238,10,0.317,0.241,0.586*47
$INHDT,98.93,T*2E
$INZDA,172809.58,14,09,2023,,*71
$INGGA,172809.00,4331.388619,N,05839.719710,W,2,08,1.2,1.00,M,-16.94,M,1.2,0001*6F
$INVTG,98.22,T,,M,10.5,N,19.4,K,D*11
$INRMC,172809.00,A,4331.388619,N,05839.719710,W,10.5,98.22,140923,,,D*62
$GPGST,172809.00,0.55,0.319,0.238,10,0.317,0.241,0.586*46
$INHDT,99.20,T*27
$INZDA,172810.58,14,09,2023,,*79
$INGGA,172810.00,4331.388207,N,05839.715644,W,2,08,1.2,0.82,M,-16.94,M,1.0,0001*69
$INVTG,97.76,T,,M,10.8,N,19.9,K,D*1F
$INRMC,172810.00,A,4331.388207,N,05839.715644,W,10.8,97.76,140923,,,D*6E
$GPGST,172810.00,0.55,0.319,0.238,10,0.317,0.241,0.586*4E
$INHDT,99.43,T*22
$INZDA,172811.58,14,09,2023,,*78
$INGGA,172811.00,4331.387820,N,05839.711567,W,2,08,1.2,0.77,M,-16.94,M,0.2,0001*67
$INVTG,97.42,T,,M,10.7,N,19.9,K,D*17
$INRMC,172811.00,A,4331.387820,N,05839.711567,W,10.7,97.42,140923,,,D*61
$GPGST,172811.00,0.55,0.319,0.238,10,0.317,0.241,0.586*4F
$INHDT,99.52,T*22
$INZDA,172812.58,14,09,2023,,*7B
$INGGA,172812.00,4331.387463,N,05839.707571,W,2,08,1.2,0.89,M,-16.94,M,0.0,0001*6C
$INVTG,97.21,T,,M,10.5,N,19.5,K,D*1C
$INRMC,172812.00,A,4331.387463,N,05839.707571,W,10.5,97.21,140923,,,D*6E
$GPGST,172812.00,0.55,0.319,0.238,10,0.317,0.241,0.586*4C
$INHDT,99.43,T*22
$INZDA,172813.58,14,09,2023,,*7A
$INGGA,172813.00,4331.387120,N,05839.703615,W,2,08,1.2,1.16,M,-16.94,M,0.4,0001*69
$INVTG,96.75,T,,M,10.5,N,19.4,K,D*1D
$INRMC,172813.00,A,4331.387120,N,05839.703615,W,10.5,96.75,140923,,,D*68
$GPGST,172813.00,0.55,0.319,0.238,10,0.317,0.241,0.586*4D
$INHDT,99.29,T*2E
$INZDA,172814.58,14,09,2023,,*7D
$INGGA,172814.00,4331.386851,N,05839.699595,W,2,08,1.2,1.44,M,-16.94,M,0.2,0001*68
$INVTG,95.25,T,,M,10.6,N,19.6,K,D*1A
$INRMC,172814.00,A,4331.386851,N,05839.699595,W,10.6,95.25,140923,,,D*6D
$GPGST,172814.00,0.55,0.319,0.238,10,0.317,0.241,0.586*4A
$INHDT,99.26,T*21
$INZDA,172815.58,14,09,2023,,*7C
$INGGA,172815.00,4331.386673,N,05839.695516,W,2,08,1.2,1.64,M,-16.94,M,0.0,0001*60
$INVTG,93.46,T,,M,10.7,N,19.8,K,D*16
$INRMC,172815.00,A,4331.386673,N,05839.695516,W,10.7,93.46,140923,,,D*67
$GPGST,172815.00,0.55,0.319,0.238,10,0.317,0.241,0.585*48
$INHDT,99.37,T*21
$INZDA,172816.58,14,09,2023,,*7F
$INGGA,172816.00,4331.386521,N,05839.691461,W,2,08,1.2,1.70,M,-16.94,M,0.4,0001*63
$INVTG,93.09,T,,M,10.6,N,19.7,K,D*13
$INRMC,172816.00,A,4331.386521,N,05839.691461,W,10.6,93.09,140923,,,D*6F
$GPGST,172816.00,0.55,0.319,0.238,10,0.317,0.241,0.585*4B
$INHDT,99.41,T*20
$INZDA,172817.58,14,09,2023,,*7E
$INGGA,172817.00,4331.386315,N,05839.687448,W,2,08,1.2,1.60,M,-16.94,M,0.2,0001*68
$INVTG,94.00,T,,M,10.5,N,19.5,K,D*1C
$INRMC,172817.00,A,4331.386315,N,05839.687448,W,10.5,94.00,140923,,,D*6E
$GPGST,172817.00,0.55,0.319,0.238,10,0.317,0.241,0.585*4A
$INHDT,99.32,T*24
$INZDA,172818.58,14,09,2023,,*71
$INGGA,172818.00,4331.386005,N,05839.683438,W,2,08,1.2,1.34,M,-16.94,M,1.2,0001*66
$INVTG,95.92,T,,M,10.6,N,19.5,K,D*15
$INRMC,172818.00,A,4331.386005,N,05839.683438,W,10.6,95.92,140923,,,D*69
$GPGST,172818.00,0.55,0.319,0.238,10,0.317,0.241,0.585*45
$INHDT,99.26,T*21
$INZDA,172819.58,14,09,2023,,*70
$INGGA,172819.00,4331.385618,N,05839.679413,W,2,08,1.2,1.02,M,-16.94,M,1.0,0001*65
$INVTG,97.71,T,,M,10.6,N,19.7,K,D*18
$INRMC,172819.00,A,4331.385618,N,05839.679413,W,10.6,97.71,140923,,,D*62
$GPGST,172819.00,0.55,0.319,0.238,10,0.317,0.241,0.585*44
$INHDT,99.33,T*25
$INZDA,172820.58,14,09,2023,,*7A
$INGGA,172820.00,4331.385191,N,05839.675460,W,2,08,1.2,0.78,M,-16.94,M,0.2,0001*6E
$INVTG,98.36,T,,M,10.5,N,19.4,K,D*14
$INRMC,172820.00,A,4331.385191,N,05839.675460,W,10.5,98.36,140923,,,D*69
$GPGST,172820.00,0.55,0.319,0.238,10,0.317,0.241,0.585*4E
$INHDT,99.38,T*2E
$INZDA,172821.58,14,09,2023,,*7B
$INGGA,172821.00,4331.384746,N,05839.671550,W,2,08,1.2,0.77,M,-16.94,M,0.0,0001*69
$INVTG,98.67,T,,M,10.4,N,19.2,K,D*17
$INRMC,172821.00,A,4331.384746,N,05839.671550,W,10.4,98.67,140923,,,D*66
$GPGST,172821.00,0.55,0.319,0.238,10,0.317,0.241,0.585*4F
$INHDT,99.26,T*21
$INZDA,172822.58,14,09,2023,,*78
$INGGA,172822.00,4331.384299,N,05839.667562,W,2,08,1.2,0.86,M,-16.94,M,0.4,0001*61
$INVTG,98.77,T,,M,10.6,N,19.6,K,D*10
$INRMC,172822.00,A,4331.384299,N,05839.667562,W,10.6,98.77,140923,,,D*67
$GPGST,172822.00,0.55,0.319,0.238,10,0.317,0.241,0.585*4C
$INHDT,99.11,T*25
$INZDA,172823.58,14,09,2023,,*79
$INGGA,172823.00,4331.383861,N,05839.663499,W,2,08,1.2,0.87,M,-16.94,M,0.2,0001*6C
$INVTG,98.52,T,,M,10.7,N,19.9,K,D*19
$INRMC,172823.00,A,4331.383861,N,05839.663499,W,10.7,98.52,140923,,,D*6B
$GPGST,172823.00,0.55,0.319,0.238,10,0.317,0.241,0.584*4C
$INHDT,99.00,T*25
$INZDA,172824.58,14,09,2023,,*7E
$INGGA,172824.00,4331.383451,N,05839.659470,W,2,08,1.2,0.81,M,-16.94,M,0.0,0001*6E
$INVTG,98.15,T,,M,10.6,N,19.7,K,D*15
$INRMC,172824.00,A,4331.383451,N,05839.659470,W,10.6,98.15,140923,,,D*6F
$GPGST,172824.00,0.55,0.319,0.238,10,0.317,0.241,0.584*4B
$INHDT,99.03,T*26
$INZDA,172825.58,14,09,2023,,*7F
$INGGA,172825.00,4331.383070,N,05839.655525,W,2,08,1.2,0.92,M,-16.94,M,1.0,0001*66
$INVTG,97.69,T,,M,10.4,N,19.3,K,D*17
$INRMC,172825.00,A,4331.383070,N,05839.655525,W,10.4,97.69,140923,,,D*62
$GPGST,172825.00,0.55,0.319,0.238,10,0.317,0.241,0.584*4A
$INHDT,99.20,T*27
$INZDA,172826.58,14,09,2023,,*7C
$INGGA,172826.00,4331.382702,N,05839.651624,W,2,08,1.2,1.24,M,-16.94,M,0.2,0001*6F
$INVTG,97.32,T,,M,10.3,N,19.0,K,D*1D
$INRMC,172826.00,A,4331.382702,N,05839.651624,W,10.3,97.32,140923,,,D*6D
$GPGST,172826.00,0.55,0.319,0.238,10,0.317,0.241,0.584*49
$INHDT,99.27,T*20
$INZDA,172827.58,14,09,2023,,*7D
$INGGA,172827.00,4331.382353,N,05839.647690,W,2,08,1.2,1.49,M,-16.94,M,1.2,0001*6C
$INVTG,97.14,T,,M,10.4,N,19.3,K,D*1D
$INRMC,172827.00,A,4331.382353,N,05839.647690,W,10.4,97.14,140923,,,D*67
$GPGST,172827.00,0.55,0.319,0.238,10,0.317,0.241,0.584*48
$INHDT,99.17,T*23
$INZDA,172828.58,14,09,2023,,*72
$INGGA,172828.00,4331.381994,N,05839.643669,W,2,08,1.2,1.55,M,-16.94,M,1.0,0001*6C
$INVTG,96.87,T,,M,10.6,N,19.6,K,D*11
$INRMC,172828.00,A,4331.381994,N,05839.643669,W,10.6,96.87,140923,,,D*61
$GPGST,172828.00,0.55,0.319,0.238,10,0.317,0.241,0.584*47
$INHDT,99.03,T*26
$INZDA,172829.58,14,09,2023,,*73
$INGGA,172829.00,4331.381682,N,05839.639600,W,2,08,1.2,1.44,M,-16.94,M,0.2,0001*64
$INVTG,96.16,T,,M,10.7,N,19.9,K,D*17
$INRMC,172829.00,A,4331.381682,N,05839.639600,W,10.7,96.16,140923,,,D*63
$GPGST,172829.00,0.55,0.319,0.238,10,0.317,0.241,0.584*46
$INHDT,98.99,T*24
$INZDA,172830.58,14,09,2023,,*7B
$INGGA,172830.00,4331.381406,N,05839.635519,W,2,08,1.2,1.30,M,-16.94,M,0.0,0001*64
$INVTG,95.34,T,,M,10.7,N,19.9,K,D*14
$INRMC,172830.00,A,4331.381406,N,05839.635519,W,10.7,95.34,140923,,,D*61
$GPGST,172830.00,0.55,0.319,0.238,10,0.317,0.241,0.584*4E
$INHDT,98.96,T*2B
$INZDA,172831.58,14,09,2023,,*7A
$INGGA,172831.00,4331.381145,N,05839.631519,W,2,08,1.2,1.16,M,-16.94,M,0.4,0001*63
$INVTG,95.17,T,,M,10.5,N,19.5,K,D*1B
$INRMC,172831.00,A,4331.381145,N,05839.631519,W,10.5,95.17,140923,,,D*65
$GPGST,172831.00,0.55,0.319,0.238,10,0.317,0.241,0.583*48
$INHDT,98.84,T*28
$INZDA,172832.58,14,09,2023,,*79
$INGGA,172832.00,4331.380861,N,05839.627592,W,2,08,1.2,1.10,M,-16.94,M,0.2,0001*6A
$INVTG,95.63,T,,M,10.4,N,19.2,K,D*1E
$INRMC,172832.00,A,4331.380861,N,05839.627592,W,10.4,95.63,140923,,,D*6E
$GPGST,172832.00,0.55,0.319,0.238,10,0.317,0.241,0.583*4B
$INHDT,98.66,T*24
$INZDA,172833.58,14,09,2023,,*78
$INGGA,172833.00,4331.380526,N,05839.623633,W,2,08,1.2,1.04,M,-16.94,M,0.0,0001*6E
$INVTG,96.54,T,,M,10.4,N,19.3,K,D*18
$INRMC,172833.00,A,4331.380526,N,05839.623633,W,10.4,96.54,140923,,,D*6A
$GPGST,172833.00,0.55,0.319,0.238,10,0.317,0.241,0.583*4A
$INHDT,98.52,T*23
$INZDA,172834.58,14,09,2023,,*7F
$INGGA,172834.00,4331.380141,N,05839.619607,W,2,08,1.2,0.90,M,-16.94,M,0.4,0001*6A
$INVTG,97.46,T,,M,10.6,N,19.7,K,D*1C
$INRMC,172834.00,A,4331.380141,N,05839.619607,W,10.6,97.46,140923,,,D*66
$GPGST,172834.00,0.55,0.319,0.238,10,0.317,0.241,0.583*4D
$INHDT,98.49,T*29
$INZDA,172835.58,14,09,2023,,*7E
$INGGA,172835.00,4331.379739,N,05839.615581,W,2,08,1.2,0.78,M,-16.94,M,1.4,0001*62
$INVTG,97.79,T,,M,10.7,N,19.7,K,D*11
$INRMC,172835.00,A,4331.379739,N,05839.615581,W,10.7,97.79,140923,,,D*64
$GPGST,172835.00,0.55,0.319,0.238,10,0.317,0.241,0.583*4C
$INHDT,98.51,T*20
$INZDA,172836.58,14,09,2023,,*7D
$INGGA,172836.00,4331.379305,N,05839.611608,W,2,08,1.2,0.83,M,-16.94,M,1.2,0001*6E
$INVTG,98.66,T,,M,10.5,N,19.5,K,D*10
$INRMC,172836.00,A,4331.379305,N,05839.611608,W,10.5,98.66,140923,,,D*69
$GPGST,172836.00,0.55,0.319,0.238,10,0.317,0.241,0.583*4F
$INHDT,98.46,T*26
$INZDA,172837.58,14,09,2023,,*7C
$INGGA,172837.00,4331.378858,N,05839.607673,W,2,08,1.2,1.08,M,-16.94,M,1.0,0001*66
$INVTG,98.88,T,,M,10.4,N,19.3,K,D*17
$INRMC,172837.00,A,4331.378858,N,05839.607673,W,10.4,98.88,140923,,,D*60
$GPGST,172837.00,0.55,0.319,0.238,10,0.317,0.241,0.583*4E
$INHDT,98.40,T*20
$INZDA,172838.58,14,09,2023,,*73
$INGGA,172838.00,4331.378474,N,05839.603741,W,2,08,1.2,1.47,M,-16.94,M,0.2,0001*67
$INVTG,97.72,T,,M,10.4,N,19.2,K,D*1C
$INRMC,172838.00,A,4331.378474,N,05839.603741,W,10.4,97.72,140923,,,D*63
$GPGST,172838.00,0.55,0.319,0.238,10,0.317,0.241,0.582*40
$INHDT,98.34,T*23
$INZDA,172839.58,14,09,2023,,*72
$INGGA,172839.00,4331.378161,N,05839.599751,W,2,08,1.2,1.72,M,-16.94,M,0.0,0001*62
$INVTG,96.09,T,,M,10.5,N,19.5,K,D*17
$INRMC,172839.00,A,4331.378161,N,05839.599751,W,10.5,96.09,140923,,,D*6E
$GPGST,172839.00,0.55,0.319,0.238,10,0.317,0.241,0.582*41
$INHDT,98.26,T*20
$INZDA,172840.58,14,09,2023,,*7C
$INGGA,172840.00,4331.377903,N,05839.595687,W,2,08,1.2,1.70,M,-16.94,M,0.4,0001*6F
$INVTG,95.08,T,,M,10.7,N,19.8,K,D*1A
$INRMC,172840.00,A,4331.377903,N,05839.595687,W,10.7,95.08,140923,,,D*65
$GPGST,172840.00,0.55,0.319,0.238,10,0.317,0.241,0.582*4F
$INHDT,98.19,T*2C
$INZDA,172841.58,14,09,2023,,*7D
$INGGA,172841.00,4331.377687,N,05839.591646,W,2,08,1.2,1.54,M,-16.94,M,0.2,0001*64
$INVTG,94.37,T,,M,10.6,N,19.7,K,D*19
$INRMC,172841.00,A,4331.377687,N,05839.591646,W,10.6,94.37,140923,,,D*62
$GPGST,172841.00,0.55,0.319,0.238,10,0.317,0.241,0.582*4E
$INHDT,98.13,T*26
$INZDA,172842.58,14,09,2023,,*7E
$INGGA,172842.00,4331.377449,N,05839.587668,W,2,08,1.2,1.32,M,-16.94,M,0.0,0001*6E
$INVTG,94.78,T,,M,10.4,N,19.3,K,D*14
$INRMC,172842.00,A,4331.377449,N,05839.587668,W,10.4,94.78,140923,,,D*63
$GPGST,172842.00,0.55,0.319,0.238,10,0.317,0.241,0.582*4D
$INHDT,98.01,T*25
$INZDA,172843.58,14,09,2023,,*7F
$INGGA,172843.00,4331.377170,N,05839.583660,W,2,08,1.2,1.07,M,-16.94,M,1.0,0001*6B
$INVTG,95.58,T,,M,10.5,N,19.5,K,D*10
$INRMC,172843.00,A,4331.377170,N,05839.583660,W,10.5,95.58,140923,,,D*63
$GPGST,172843.00,0.55,0.319,0.238,10,0.317,0.241,0.582*4C
$INHDT,97.87,T*24
$INZDA,172844.58,14,09,2023,,*78
$INGGA,172844.00,4331.376826,N,05839.579582,W,2,08,1.2,0.73,M,-16.94,M,1.4,0001*6B
$INVTG,96.60,T,,M,10.8,N,20.0,K,D*1A
$INRMC,172844.00,A,4331.376826,N,05839.579582,W,10.8,96.60,140923,,,D*60
$GPGST,172844.00,0.55,0.319,0.238,10,0.317,0.241,0.582*4B
$INHDT,97.78,T*24
$INZDA,172845.58,14,09,2023,,*79
$INGGA,172845.00,4331.376433,N,05839.575463,W,2,08,1.2,0.42,M,-16.94,M,1.2,0001*64
$INVTG,97.44,T,,M,10.9,N,20.1,K,D*1D
$INRMC,172845.00,A,4331.376433,N,05839.575463,W,10.9,97.44,140923,,,D*6D
$GPGST,172845.00,0.55,0.319,0.238,10,0.317,0.241,0.581*49
$INHDT,97.76,T*2A
$INZDA,172846.58,14,09,2023,,*7A
$INGGA,172846.00,4331.376006,N,05839.571413,W,2,08,1.2,0.28,M,-16.94,M,0.4,0001*6D
$INVTG,98.35,T,,M,10.7,N,19.8,K,D*19
$INRMC,172846.00,A,4331.376006,N,05839.571413,W,10.7,98.35,140923,,,D*68
$GPGST,172846.00,0.55,0.319,0.238,10,0.317,0.240,0.581*4B
$INHDT,97.74,T*28
$INZDA,172847.58,14,09,2023,,*7B
$INGGA,172847.00,4331.375558,N,05839.567497,W,2,08,1.2,0.48,M,-16.94,M,0.2,0001*6A
$INVTG,98.79,T,,M,10.4,N,19.2,K,D*18
$INRMC,172847.00,A,4331.375558,N,05839.567497,W,10.4,98.79,140923,,,D*64
$GPGST,172847.00,0.55,0.319,0.238,10,0.317,0.240,0.581*4A
$INHDT,97.70,T*2C
$INZDA,172848.58,14,09,2023,,*74
$INGGA,172848.00,4331.375152,N,05839.563666,W,2,08,1.2,1.06,M,-16.94,M,0.0,0001*6A
$INVTG,98.33,T,,M,10.1,N,18.8,K,D*18
$INRMC,172848.00,A,4331.375152,N,05839.563666,W,10.1,98.33,140923,,,D*66
$GPGST,172848.00,0.55,0.319,0.238,10,0.317,0.240,0.581*45
$INHDT,97.64,T*29
$INZDA,172849.58,14,09,2023,,*75
$INGGA,172849.00,4331.374845,N,05839.559849,W,2,08,1.2,1.74,M,-16.94,M,0.4,0001*6E
$INVTG,96.39,T,,M,10.1,N,18.6,K,D*12
$INRMC,172849.00,A,4331.374845,N,05839.559849,W,10.1,96.39,140923,,,D*67
$GPGST,172849.00,0.55,0.319,0.238,10,0.317,0.240,0.581*44
$INHDT,97.55,T*2B
$INZDA,172850.58,14,09,2023,,*7D
$INGGA,172850.00,4331.374655,N,05839.555944,W,2,08,1.2,2.19,M,-16.94,M,0.2,0001*67
$INVTG,93.81,T,,M,10.3,N,19.0,K,D*11
$INRMC,172850.00,A,4331.374655,N,05839.555944,W,10.3,93.81,140923,,,D*64
$GPGST,172850.00,0.55,0.319,0.238,10,0.317,0.240,0.581*4C
$INHDT,97.40,T*2F
$INZDA,172851.58,14,09,2023,,*7C
$INGGA,172851.00,4331.374540,N,05839.551889,W,2,08,1.2,2.18,M,-16.94,M,0.0,0001*66
$INVTG,92.25,T,,M,10.6,N,19.7,K,D*1C
$INRMC,172851.00,A,4331.374540,N,05839.551889,W,10.6,92.25,140923,,,D*6C
$GPGST,172851.00,0.55,0.319,0.238,10,0.317,0.240,0.581*4D
$INHDT,97.33,T*2B
$INZDA,172852.58,14,09,2023,,*7F
$INGGA,172852.00,4331.374419,N,05839.547721,W,2,08,1.2,1.82,M,-16.94,M,1.0,0001*63
$INVTG,92.18,T,,M,10.9,N,20.2,K,D*12
$INRMC,172852.00,A,4331.374419,N,05839.547721,W,10.9,92.18,140923,,,D*69
$GPGST,172852.00,0.55,0.319,0.238,10,0.317,0.240,0.581*4E
$INHDT,97.41,T*2E
$INZDA,172853.58,14,09,2023,,*7E
$INGGA,172853.00,4331.374279,N,05839.543550,W,2,08,1.2,1.34,M,-16.94,M,1.4,0001*6B
$INVTG,92.76,T,,M,10.9,N,20.3,K,D*1B
$INRMC,172853.00,A,4331.374279,N,05839.543550,W,10.9,92.76,140923,,,D*60
$GPGST,172853.00,0.55,0.319,0.238,10,0.317,0.240,0.580*4E
$INHDT,97.57,T*29
$INZDA,172854.58,14,09,2023,,*79
$INGGA,172854.00,4331.374085,N,05839.539486,W,2,08,1.2,0.93,M,-16.94,M,1.2,0001*60
$INVTG,93.75,T,,M,10.7,N,19.8,K,D*16
$INRMC,172854.00,A,4331.374085,N,05839.539486,W,10.7,93.75,140923,,,D*6D
$GPGST,172854.00,0.55,0.319,0.238,10,0.317,0.240,0.580*49
$INHDT,97.62,T*2F
$INZDA,172855.58,14,09,2023,,*78
$INGGA,172855.00,4331.373787,N,05839.535500,W,2,08,1.2,0.75,M,-16.93,M,0.4,0001*68
$INVTG,95.63,T,,M,10.5,N,19.4,K,D*19
$INRMC,172855.00,A,4331.373787,N,05839.535500,W,10.5,95.63,140923,,,D*6E
$GPGST,172855.00,0.55,0.319,0.238,10,0.317,0.240,0.580*48
$INHDT,97.47,T*28
$INZDA,172856.58,14,09,2023,,*7B
$INGGA,172856.00,4331.373392,N,05839.531553,W,2,08,1.2,0.71,M,-16.93,M,0.2,0001*6B
$INVTG,97.82,T,,M,10.4,N,19.3,K,D*12
$INRMC,172856.00,A,4331.373392,N,05839.531553,W,10.4,97.82,140923,,,D*63
$GPGST,172856.00,0.55,0.319,0.238,10,0.317,0.240,0.580*4B
$INHDT,97.22,T*2B
$INZDA,172857.58,14,09,2023,,*7A
$INGGA,172857.00,4331.372940,N,05839.527576,W,2,08,1.2,0.67,M,-16.93,M,0.0,0001*6B
$INVTG,98.92,T,,M,10.5,N,19.5,K,D*1B
$INRMC,172857.00,A,4331.372940,N,05839.527576,W,10.5,98.92,140923,,,D*69
$GPGST,172857.00,0.55,0.319,0.238,10,0.317,0.240,0.580*4A
$INHDT,97.05,T*2E
$INZDA,172858.58,14,09,2023,,*75
$INGGA,172858.00,4331.372462,N,05839.523583,W,2,08,1.2,0.60,M,-16.93,M,0.4,0001*64
$INVTG,99.23,T,,M,10.6,N,19.6,K,D*10
$INRMC,172858.00,A,4331.372462,N,05839.523583,W,10.6,99.23,140923,,,D*6D
$GPGST,172858.00,0.55,0.319,0.238,10,0.317,0.240,0.580*45
$INHDT,97.02,T*29
$INZDA,172859.58,14,09,2023,,*74
$INGGA,172859.00,4331.372035,N,05839.519592,W,2,08,1.2,0.67,M,-16.93,M,0.2,0001*6B
$INVTG,98.49,T,,M,10.6,N,19.6,K,D*1D
$INRMC,172859.00,A,4331.372035,N,05839.519592,W,10.6,98.49,140923,,,D*6E
$GPGST,172859.00,0.55,0.319,0.238,10,0.317,0.240,0.580*44
$INHDT,97.07,T*2C
$INZDA,172900.58,14,09,2023,,*79
$INGGA,172900.00,4331.371685,N,05839.515617,W,2,08,1.2,0.89,M,-16.93,M,0.0,0001*68
$INVTG,97.02,T,,M,10.5,N,19.4,K,D*1C
$INRMC,172900.00,A,4331.371685,N,05839.515617,W,10.5,97.02,140923,,,D*6C
$GPGST,172900.00,0.55,0.319,0.238,10,0.317,0.240,0.579*4F
$INHDT,97.18,T*22
$INZDA,172901.58,14,09,2023,,*78
$INGGA,172901.00,4331.371408,N,05839.511634,W,2,08,1.2,1.26,M,-16.93,M,0.4,0001*6B
$INVTG,95.53,T,,M,10.5,N,19.4,K,D*1A
$INRMC,172901.00,A,4331.371408,N,05839.511634,W,10.5,95.53,140923,,,D*69
